{
  "_note": "Real Madeira animal-protection associations from public sources (official sites, town councils, MAPESS). Coordinates are decimal lat/lng; 'address'-level where a street address was found, otherwise town-level. The daily volunteer 'need' is illustrative. 'physical' = runs an on-site shelter (walking/cleaning volunteering) vs. foster/colony network. Santana and São Vicente entries are placeholders to confirm; AAMA is on Porto Santo (separate island).",
  "shelters": [
    { "id": "spad",        "name": "SPAD Funchal",                        "council": "Funchal · Santa Luzia",             "coast": "S", "need": 4, "physical": true,  "lat": 32.6554, "lng": -16.9009, "coord_precision": "address", "url": "https://spad.pt/",                              "focus": { "pt": "Cães e gatos · único abrigo licenciado da ilha", "en": "Dogs & cats · island's only licensed shelter" } },
    { "id": "vascogil",    "name": "Canil do Funchal (Vasco Gil)",        "council": "Funchal · Santo António",           "coast": "S", "need": 4, "physical": true,  "lat": 32.6916, "lng": -16.9489, "coord_precision": "address", "url": "https://canil.funchal.pt/",                     "focus": { "pt": "Canil municipal / CRO · cães e gatos", "en": "Municipal shelter (CRO) · dogs & cats" } },
    { "id": "machico",     "name": "Abrigo Municipal de Machico",         "council": "Machico",                           "coast": "E", "need": 3, "physical": true,  "lat": 32.7289, "lng": -16.7734, "coord_precision": "address", "url": "https://abrigomunicipal.cm-machico.pt/",        "focus": { "pt": "Abrigo municipal · 80+ cães", "en": "Municipal shelter · 80+ dogs" } },
    { "id": "camaralobos", "name": "Canil de Câmara de Lobos",            "council": "Câmara de Lobos",                   "coast": "S", "need": 3, "physical": true,  "lat": 32.6486, "lng": -16.9785, "coord_precision": "address", "url": "https://causaanimal.cm-camaradelobos.pt/",      "focus": { "pt": "Canil municipal · tem voluntariado", "en": "Municipal shelter · has volunteering" } },
    { "id": "amaw",        "name": "AMAW – Madeira Animal Welfare",       "council": "Santa Cruz · Sto António da Serra",  "coast": "E", "need": 1, "physical": false, "lat": 32.7163, "lng": -16.8361, "coord_precision": "town",    "url": "https://www.madeiraanimalwelfare.org/",         "focus": { "pt": "Esterilização de cães e gatos errantes", "en": "Spay/neuter of stray dogs & cats" } },
    { "id": "amais",       "name": "AMAIS Madeira",                       "council": "Funchal · São Roque",               "coast": "S", "need": 2, "physical": false, "lat": 32.6948, "lng": -16.9238, "coord_precision": "town",    "url": "https://www.facebook.com/AMAISmadeira/",        "focus": { "pt": "Cães e gatos · adoção e resgate", "en": "Dogs & cats · adoption & rescue" } },
    { "id": "refugio",     "name": "O Nosso Refúgio",                     "council": "Funchal",                           "coast": "S", "need": 1, "physical": false, "lat": 32.6485, "lng": -16.9080, "coord_precision": "town",    "url": "https://nossorefugio.ong.pt/",                  "focus": { "pt": "Rede de famílias de acolhimento", "en": "Foster-family network" } },
    { "id": "animad",      "name": "ANIMAD",                              "council": "Santa Cruz · Caniço",               "coast": "S", "need": 2, "physical": false, "lat": 32.6524, "lng": -16.8410, "coord_precision": "town",    "url": "https://www.facebook.com/associacao.animad/",   "focus": { "pt": "Cães e gatos · acolhimento e adoção", "en": "Dogs & cats · fostering & adoption" } },
    { "id": "pata",        "name": "PATA Madeira",                        "council": "Santa Cruz · Camacha",              "coast": "S", "need": 2, "physical": false, "lat": 32.6794, "lng": -16.8449, "coord_precision": "town",    "url": "https://www.facebook.com/patamadeira/",         "focus": { "pt": "Cães e gatos · colónias e acolhimento", "en": "Dogs & cats · colonies & fostering" } },
    { "id": "vamosla",     "name": "Vamos Lá Madeira",                    "council": "Funchal · São Roque",               "coast": "S", "need": 1, "physical": false, "lat": 32.7050, "lng": -16.9450, "coord_precision": "town",    "url": "https://www.facebook.com/vamoslamadeira/",      "focus": { "pt": "Colónias (CED) e adoção responsável", "en": "TNR colonies & responsible adoption" } },
    { "id": "santana",     "name": "Abrigo em Santana (a confirmar)",     "council": "Santana",                           "coast": "N", "need": 2, "physical": true,  "lat": 32.7990, "lng": -16.8810, "coord_precision": "town",    "url": null,                                            "focus": { "pt": "Abrigo semiprivado · a confirmar", "en": "Semi-private shelter · to confirm" } },
    { "id": "saovicente",  "name": "Abrigo em São Vicente (a confirmar)", "council": "São Vicente",                       "coast": "N", "need": 2, "physical": true,  "lat": 32.7950, "lng": -16.9830, "coord_precision": "town",    "url": null,                                            "focus": { "pt": "Costa norte · a confirmar", "en": "North coast · to confirm" } }
  ]
}
